City_ID,City,Lat,Lng,Max Temp,Humidity,Cloudiness,Wind Speed,Country,Date
0,port alfred,-33.5906,26.891,18.220000000000027,41,7,6.09,ZA,1691102693
1,farafangana,-22.8167,47.8333,19.760000000000048,69,97,5.09,MG,1691102694
2,mareeba,-17.0,145.4333,19.689999999999998,84,53,3.92,AU,1691102694
3,hermanus,-34.4187,19.2345,16.160000000000025,62,100,2.29,ZA,1691102695
4,tuktoyaktuk,69.4541,-133.0374,14.0,82,75,7.72,CA,1691102696
5,cape town,-33.9258,18.4232,18.230000000000018,61,0,4.63,ZA,1691102696
6,tucupita,9.0622,-62.051,28.860000000000014,64,16,2.65,VE,1691102696
7,abu dhabi,24.4667,54.3667,36.08000000000004,73,0,1.54,AE,1691102697
8,rikitea,-23.1203,-134.9692,21.560000000000002,87,71,4.92,PF,1691102697
9,mataura,-46.1927,168.8643,11.930000000000007,72,100,3.76,NZ,1691102698
10,guiratinga,-16.3494,-53.7583,24.850000000000023,27,0,1.74,BR,1691102698
11,hobart,-42.8794,147.3294,12.370000000000005,89,75,2.57,AU,1691102699
12,jamestown,42.097,-79.2353,26.80000000000001,50,0,4.63,US,1691102682
13,hovd,48.0056,91.6419,17.340000000000032,53,4,1.88,MN,1691102699
14,puerto ayora,-0.7393,-90.3518,29.980000000000018,91,53,2.24,EC,1691102700
15,sitka,57.0531,-135.33,18.939999999999998,72,20,3.09,US,1691102700
16,zhigansk,66.7697,123.3711,11.330000000000041,76,96,4.36,RU,1691102700
17,simdega,22.6167,84.5167,21.939999999999998,97,100,4.69,IN,1691102701
18,upernavik,72.7868,-56.1549,3.140000000000043,92,89,3.82,GL,1691102701
19,arraial do cabo,-22.9661,-42.0278,20.920000000000016,83,0,2.06,BR,1691102436
20,torbay,47.6666,-52.7314,20.430000000000007,56,75,4.12,CA,1691102702
21,barrow,71.2906,-156.7887,6.010000000000048,81,100,3.09,US,1691102703
22,husavik,66.0449,-17.3389,8.0,86,21,0.78,IS,1691102703
23,raudeberg,61.9875,5.1352,13.370000000000005,82,98,7.42,NO,1691102704
24,krasnyy klyuch,55.3863,56.6529,18.480000000000018,76,70,0.54,RU,1691102705
25,otane,-39.8833,176.6333,12.230000000000018,64,47,5.05,NZ,1691102706
26,ushuaia,-54.8,-68.3,0.8100000000000023,86,100,7.2,AR,1691102707
27,srednekolymsk,67.45,153.6833,12.420000000000016,52,32,4.82,RU,1691102708
28,gerede,40.8008,32.1969,15.710000000000036,66,0,1.44,TR,1691102709
29,ankazoabo,-22.2833,44.5167,15.870000000000005,67,16,3.64,MG,1691102709
30,busselton,-33.65,115.3333,7.860000000000014,78,38,3.22,AU,1691102711
31,diu,20.7141,70.9822,26.210000000000036,88,100,8.39,IN,1691102711
32,feira de santana,-12.2667,-38.9667,19.160000000000025,91,76,2.03,BR,1691102712
33,hilo,19.7297,-155.09,31.82000000000005,77,0,4.63,US,1691102704
34,qaanaaq,77.484,-69.3632,3.0100000000000477,89,92,0.83,GL,1691102713
35,airai,-8.9266,125.4092,15.180000000000007,77,28,1.49,TL,1691102714
36,rawson,-43.3002,-65.1023,10.110000000000014,32,0,10.37,AR,1691102715
37,tezu,27.9167,96.1667,24.689999999999998,89,78,0.91,IN,1691102716
38,olga,43.7444,135.2892,16.78000000000003,97,100,2.28,RU,1691102717
39,nyurba,63.2842,118.3319,15.600000000000023,79,98,3.56,RU,1691102718
40,luderitz,-26.6481,15.1594,15.460000000000036,49,98,1.82,NA,1691102718
41,namibe,-15.1961,12.1522,17.360000000000014,90,47,4.83,AO,1691102719
42,san policarpo,12.1791,125.5072,27.100000000000023,79,87,3.21,PH,1691102720
43,vestmanna,62.1564,-7.1664,7.510000000000048,87,100,6.69,FO,1691102721
44,hohhot,40.8106,111.6522,20.160000000000025,94,40,1.0,CN,1691102721
45,khatanga,71.9667,102.5,9.060000000000002,62,50,1.46,RU,1691102722
46,bonanza,14.0289,-84.591,26.910000000000025,89,69,0.88,NI,1691102723
47,general pico,-35.6566,-63.7568,10.410000000000025,36,67,3.36,AR,1691102723
48,bluff,-46.6,168.3333,12.110000000000014,81,100,8.94,NZ,1691102724
49,hasaki,35.7333,140.8333,30.220000000000027,79,59,5.04,JP,1691102724
50,pleven,43.4167,24.6167,25.970000000000027,61,20,2.06,BG,1691102726
51,puerto leguizamo,-0.1934,-74.7819,23.54000000000002,88,88,0.39,CO,1691102727
52,tuatapere,-46.1333,167.6833,10.840000000000032,84,96,2.53,NZ,1691102728
53,port lincoln,-34.7333,135.8667,11.970000000000027,76,89,7.22,AU,1691102692
54,atuona,-9.8,-139.0333,25.970000000000027,70,97,8.21,PF,1691102730
55,butaritari,3.0707,172.7902,28.49000000000001,72,100,3.07,KI,1691102731
56,butembo,0.15,29.2833,15.240000000000009,73,93,1.32,CD,1691102731
57,ponta do sol,32.6667,-17.1,24.28000000000003,79,34,3.11,PT,1691102732
58,tiksi,71.6872,128.8694,3.1200000000000045,96,100,3.62,RU,1691102732
59,punta arenas,-53.15,-70.9167,2.0400000000000205,77,80,12.62,CL,1691102733
60,albany,42.6001,-73.9662,22.870000000000005,82,100,0.45,US,1691102531
61,bethel,41.3712,-73.414,23.900000000000034,66,96,0.89,US,1691102453
62,port hedland,-20.3167,118.5667,20.03000000000003,100,100,2.57,AU,1691102734
63,kemlya,54.6963,45.2424,19.75,81,88,1.05,RU,1691102734
64,paamiut,61.994,-49.6678,4.8799999999999955,93,27,6.96,GL,1691102734
65,kapaa,22.0752,-159.319,31.180000000000007,74,20,6.69,US,1691102650
66,mar del plata,-38.0023,-57.5575,10.53000000000003,47,0,4.12,AR,1691102735
67,kruisfontein,-34.0033,24.7314,13.82000000000005,40,4,4.76,ZA,1691102735
68,dicabisagan,17.0818,122.4157,28.620000000000005,73,100,3.02,PH,1691102736
69,mecca,21.4267,39.8261,30.980000000000018,26,0,0.98,SA,1691102505
70,henties bay,-22.116,14.2845,12.25,90,66,2.1,NA,1691102737
71,bambous virieux,-20.3428,57.7575,22.140000000000043,78,40,4.63,MU,1691102737
72,yellowknife,62.456,-114.3525,22.29000000000002,49,75,3.09,CA,1691102213
73,mount gambier,-37.8333,140.7667,12.300000000000011,93,97,8.09,AU,1691102738
74,vanimo,-2.6741,141.3028,26.470000000000027,85,73,2.01,PG,1691102738
75,hithadhoo,-0.6,73.0833,27.620000000000005,77,50,3.64,MV,1691102739
76,tucurui,-3.7661,-49.6725,27.850000000000023,47,12,1.3,BR,1691102739
77,pevek,69.7008,170.3133,4.439999999999998,100,100,1.61,RU,1691102739
78,bredasdorp,-34.5322,20.0403,14.810000000000002,52,92,2.58,ZA,1691102740
79,mugumu,-1.85,34.7,16.120000000000005,65,93,1.92,TZ,1691102741
80,castro,-24.7911,-50.0119,14.879999999999995,59,1,0.59,BR,1691102741
81,deputatskiy,69.3,139.9,15.360000000000014,51,97,2.3,RU,1691102741
82,atocha,-20.9333,-66.2333,10.260000000000048,10,0,4.41,BO,1691102742
83,nanortalik,60.1432,-45.2371,6.020000000000039,95,100,2.94,GL,1691102743
84,korcula,42.9622,17.1369,26.07000000000005,80,0,6.02,HR,1691102744
85,kot addu,30.4692,70.9671,35.22000000000003,41,6,6.17,PK,1691102744
86,avarua,-21.2078,-159.775,23.03000000000003,83,75,5.66,CK,1691102745
87,thompson,55.7435,-97.8558,24.090000000000032,53,75,1.03,CA,1691102745
88,huilong,31.8111,121.655,28.850000000000023,90,1,5.57,CN,1691102746
89,kangaatsiaq,68.3065,-53.4641,4.100000000000023,88,86,6.37,GL,1691102746
90,dourbali,11.8091,15.8632,27.220000000000027,65,97,3.05,TD,1691102746
91,belyy yar,53.6039,91.3903,19.939999999999998,88,0,1.0,RU,1691102747
92,tommot,58.9564,126.2925,16.80000000000001,61,7,1.13,RU,1691102747
93,bulawayo,-20.15,28.5833,7.140000000000043,55,0,4.81,ZW,1691102748
94,sobolevo,54.4299,31.8996,16.78000000000003,81,18,3.43,RU,1691102749
95,aquiraz,-3.9014,-38.3911,27.32000000000005,86,35,4.68,BR,1691102749
96,rocha,-34.4833,-54.3333,9.5,56,100,2.28,UY,1691102750
97,riyadh,24.6877,46.7219,36.08000000000004,14,6,4.84,SA,1691102751
98,new norfolk,-42.7826,147.0587,12.180000000000007,76,100,1.25,AU,1691102752
99,georgetown,5.4112,100.3354,28.970000000000027,78,20,4.12,MY,1691102751
100,barra da estiva,-13.6261,-41.3269,19.02000000000004,59,35,1.03,BR,1691102753
101,nelson bay,-32.7167,152.15,13.890000000000043,89,65,0.89,AU,1691102753
102,hofn,64.2539,-15.2082,11.439999999999998,85,9,1.95,IS,1691102754
103,prince rupert,54.3161,-130.3201,19.05000000000001,83,0,4.12,CA,1691102637
104,linares,-35.85,-71.6,7.710000000000036,83,38,2.28,CL,1691102755
105,davila,18.4726,120.5763,27.99000000000001,88,100,12.9,PH,1691102755
106,tual,-5.6667,132.75,26.210000000000036,85,67,9.08,ID,1691102755
107,kokkola,63.8385,23.1307,15.520000000000039,95,40,1.54,FI,1691102756
108,souillac,-20.5167,57.5167,22.210000000000036,78,40,4.63,MU,1691102757
109,plettenberg bay,-34.0527,23.3716,21.04000000000002,39,12,5.32,ZA,1691102580
110,los llanos de aridane,28.6585,-17.9182,21.860000000000014,92,0,6.17,ES,1691102759
111,nishihara,26.1842,127.7558,28.03000000000003,92,100,14.4,JP,1691102759
112,ojinaga,29.5667,-104.4167,39.670000000000016,25,40,1.54,MX,1691102760
113,vila velha,-20.3297,-40.2925,22.970000000000027,89,0,1.54,BR,1691102761
114,yenagoa,4.9247,6.2642,23.170000000000016,90,75,1.75,NG,1691102761
115,puerto escondido,15.85,-97.0667,29.460000000000036,54,75,3.09,MX,1691102762
116,saint-philippe,-21.3585,55.7679,19.77000000000004,87,70,7.82,RE,1691102763
117,lorengau,-2.0226,147.2712,27.960000000000036,82,33,5.47,PG,1691102764
118,asosa,10.0667,34.5333,15.160000000000025,95,80,1.5,ET,1691102764
119,nikolskoye,59.7035,30.7861,19.939999999999998,94,100,2.74,RU,1691102765
120,broome,42.2506,-75.833,26.77000000000004,66,20,6.17,US,1691102765
121,esperance,-33.8667,121.9,11.120000000000005,58,95,1.33,AU,1691102765
122,ancud,-41.8697,-73.8203,6.400000000000034,78,23,2.86,CL,1691102766
123,makakilo city,21.3469,-158.0858,30.180000000000007,52,0,8.23,US,1691102767
124,iqaluit,63.7506,-68.5145,9.850000000000023,76,40,1.54,CA,1691102768
125,la crosse,43.8014,-91.2396,33.53000000000003,55,0,2.57,US,1691102771
126,keetmanshoop,-26.5833,18.1333,19.510000000000048,34,73,5.14,NA,1691102774
127,svetlyy,54.675,20.1347,17.03000000000003,77,15,7.85,RU,1691102774
128,shihezi,44.3,86.0333,25.77000000000004,32,1,2.47,CN,1691102775
129,palmer,42.1584,-72.3287,23.78000000000003,62,75,4.63,US,1691102775
130,koulikoro,14.0,-7.75,29.27000000000004,51,5,3.68,ML,1691102776
131,chokurdakh,70.6333,147.9167,9.990000000000009,66,100,3.03,RU,1691102776
132,isangel,-19.55,169.2667,21.060000000000002,94,100,8.23,VU,1691102777
133,goderich,43.7501,-81.7165,25.510000000000048,57,14,6.17,CA,1691102777
134,nara,34.6851,135.8049,30.54000000000002,50,28,0.55,JP,1691102778
135,adwa,14.1646,38.8955,15.82000000000005,90,81,0.99,ET,1691102779
136,honningsvag,70.9821,25.9704,19.860000000000014,73,75,3.09,NO,1691102780
137,coihaique,-45.5752,-72.0662,6.970000000000027,57,75,3.09,CL,1691102781
138,kaitangata,-46.2817,169.8464,11.510000000000048,69,93,5.02,NZ,1691102781
139,asyut,27.181,31.1837,31.100000000000023,20,0,2.36,EG,1691102782
140,narsaq,60.9167,-46.05,14.120000000000005,79,54,1.5,GL,1691102782
141,mansa,29.9833,75.3833,30.83000000000004,63,47,2.14,IN,1691102783
142,kunya,12.2233,8.5325,27.090000000000032,74,0,4.12,NG,1691102784
143,flinders,-34.5833,150.8552,18.920000000000016,58,54,1.93,AU,1691102784
144,inirida,3.8653,-67.9239,24.900000000000034,91,32,0.51,CO,1691102785
145,inta,66.0317,60.1659,19.460000000000036,75,30,4.43,RU,1691102786
146,aban,56.67,96.06,16.260000000000048,93,3,1.4,RU,1691102787
147,port keats,-14.25,129.55,23.02000000000004,63,2,3.79,AU,1691102787
148,severo-yeniseyskiy,60.3725,93.0408,12.150000000000034,74,26,3.12,RU,1691102788
149,zyryanka,65.75,150.85,14.450000000000045,46,0,6.4,RU,1691102790
150,nemuro,43.3236,145.575,19.25,95,85,9.1,JP,1691102790
151,yulara,-25.2406,130.9889,17.700000000000045,37,2,2.65,AU,1691102791
152,mon,26.75,95.1,22.610000000000014,99,100,0.71,IN,1691102791
153,vaini,-21.2,-175.2,22.090000000000032,60,75,5.66,TO,1691102792
154,ribeira grande,38.5167,-28.7,23.210000000000036,87,15,2.68,PT,1691102792
155,hamilton,39.1834,-84.5333,31.670000000000016,52,0,3.6,US,1691102793
156,coquimbo,-29.9533,-71.3436,15.850000000000023,77,75,3.09,CL,1691102794
157,pangai,-19.8,-174.35,23.060000000000002,68,40,8.23,TO,1691102794
158,kavieng,-2.5744,150.7967,27.920000000000016,78,55,3.59,PG,1691102795
159,san patricio,28.017,-97.5169,37.400000000000034,47,72,7.14,US,1691102796
160,porto novo,6.4965,2.6036,23.77000000000004,88,64,2.78,BJ,1691102765
161,umm kaddadah,13.6017,26.6876,27.30000000000001,61,100,3.96,SD,1691102797
162,vao,-22.6667,167.4833,19.260000000000048,80,100,12.76,NC,1691102798
163,saskylakh,71.9167,114.0833,4.520000000000039,74,68,4.6,RU,1691102798
164,havoysund,70.9963,24.6622,20.129999999999995,84,100,4.97,NO,1691102800
165,hauterive,46.0901,3.4459,17.420000000000016,94,100,2.64,FR,1691102800
166,desbiens,48.4178,-71.9495,18.360000000000014,92,90,5.36,CA,1691102800
167,fortuna,40.5982,-124.1573,22.74000000000001,75,0,6.17,US,1691102801
168,huicungo,-7.2833,-76.8,26.129999999999995,54,1,0.71,PE,1691102801
169,mwanza,-2.5167,32.9,23.510000000000048,47,100,5.8,TZ,1691102802
170,sao gabriel da cachoeira,-0.1303,-67.0892,23.680000000000007,95,79,0.25,BR,1691102747
171,kamsack,51.5667,-101.9009,33.170000000000016,18,0,2.7,CA,1691102802
172,touros,-5.1989,-35.4608,24.82000000000005,75,28,6.92,BR,1691102803
173,oktyabrskoye,43.0645,44.7417,18.08000000000004,88,75,4.0,RU,1691102803
174,cedar city,37.6775,-113.0619,29.54000000000002,27,0,5.66,US,1691102804
175,puerto carreno,6.189,-67.4859,26.99000000000001,89,40,3.09,CO,1691102804
176,zavyalovo,54.5053,82.4484,16.350000000000023,94,100,2.85,RU,1691102805
177,buala,-8.145,159.5921,27.600000000000023,80,90,2.47,SB,1691102805
178,kalmar,56.6616,16.3616,16.960000000000036,88,75,3.09,SE,1691102682
179,zhaotong,27.3167,103.7167,16.430000000000007,95,99,0.06,CN,1691102806
180,bafq,31.6128,55.4107,29.140000000000043,12,0,1.63,IR,1691102806
181,gamba,-2.65,10.0,20.27000000000004,89,71,1.96,GA,1691102806
182,port macquarie,-31.4333,152.9167,13.270000000000039,70,37,2.58,AU,1691102622
183,richards bay,-28.783,32.0377,17.03000000000003,69,0,6.45,ZA,1691102807
184,cairns,-16.9167,145.7667,22.260000000000048,83,100,4.12,AU,1691102808
185,talnakh,69.4865,88.3972,15.670000000000016,44,29,2.64,RU,1691102808
186,bilma,18.6853,12.9164,34.34000000000003,25,74,4.11,NE,1691102808
187,penzance,50.1186,-5.5371,15.379999999999995,85,44,9.21,GB,1691102809
188,verkhoyansk,67.5447,133.385,19.460000000000036,46,85,4.49,RU,1691102811
189,fallon,39.4735,-118.7774,34.950000000000045,20,40,3.09,US,1691102811
190,vavuniya,8.7514,80.4971,25.54000000000002,82,69,4.33,LK,1691102812
191,caluquembe,-13.7833,14.6833,14.03000000000003,63,5,1.69,AO,1691102812
192,clyde river,70.4692,-68.5914,7.1299999999999955,93,75,5.14,CA,1691102813
193,tasiilaq,65.6145,-37.6368,6.090000000000032,90,91,1.52,GL,1691102813
194,moree,-29.4667,149.85,14.890000000000043,56,13,3.25,AU,1691102814
195,jijiga,9.35,42.8,17.510000000000048,71,60,5.13,ET,1691102814
196,agadez,19.75,10.25,33.49000000000001,14,0,2.89,NE,1691102815
197,cabo san lucas,22.8909,-109.9124,37.01000000000005,43,0,7.2,MX,1691102576
198,port elizabeth,-33.918,25.5701,16.160000000000025,51,0,1.54,ZA,1691102816
199,ponta delgada,37.7333,-25.6667,23.400000000000034,78,40,4.63,PT,1691102816
200,east london,-33.0153,27.9116,20.230000000000018,34,4,5.12,ZA,1691102776
201,altona,53.55,9.9333,16.840000000000032,90,75,4.63,DE,1691102818
202,san cristobal,7.7669,-72.225,29.100000000000023,76,57,1.92,VE,1691102664
203,katsuura,35.1333,140.3,28.210000000000036,78,38,6.06,JP,1691102820
204,watertown,42.3709,-71.1828,24.670000000000016,61,0,9.26,US,1691102791
205,livramento,-3.0254,-60.1803,27.370000000000005,94,20,2.06,BR,1691102822
206,constitucion,-35.3333,-72.4167,10.54000000000002,70,73,3.25,CL,1691102756
207,port blair,11.6667,92.75,28.02000000000004,83,40,3.09,IN,1691102823
208,gazli,40.1333,63.45,30.0,19,0,4.38,UZ,1691102824
209,ibra,22.6906,58.5334,30.510000000000048,49,35,1.67,OM,1691102825
210,dongsheng,39.8161,109.9776,19.090000000000032,86,70,4.45,CN,1691102826
211,amapa,1.0,-52.0,26.32000000000005,65,95,1.32,BR,1691102826
212,rundu,-17.9333,19.7667,13.610000000000014,44,0,2.96,NA,1691102827
213,homer,59.6425,-151.5483,17.650000000000034,70,100,6.69,US,1691102827
214,zhanaozen,43.3,52.8,30.640000000000043,28,21,4.83,KZ,1691102829
215,kushnarenkovo,55.105,55.3508,20.510000000000048,62,99,1.81,RU,1691102829
216,varhaug,58.6147,5.6457,16.03000000000003,81,70,11.18,NO,1691102829
217,kavaratti,10.5669,72.642,28.189999999999998,76,32,8.1,IN,1691102830
218,xichang,27.8964,102.2634,19.180000000000007,94,100,0.25,CN,1691102831
219,seydi,39.4816,62.9137,29.28000000000003,19,0,4.47,TM,1691102831
220,ornskoldsvik,63.2909,18.7153,15.53000000000003,100,75,2.06,SE,1691102832
221,baykit,61.67,96.37,9.5,70,1,3.65,RU,1691102832
222,vostok,46.4856,135.8833,13.760000000000048,99,100,2.32,RU,1691102833
223,hervey bay,-25.2986,152.8535,19.439999999999998,65,88,8.02,AU,1691102833
224,nhamunda,-2.1861,-56.7131,29.760000000000048,49,87,0.44,BR,1691102834
225,korla,41.7597,86.1469,24.680000000000007,32,0,1.89,CN,1691102835
226,chulman,56.8479,124.9104,14.100000000000023,65,0,0.5,RU,1691102835
227,lebu,-37.6167,-73.65,8.689999999999998,75,2,8.02,CL,1691102836
228,saldanha,-33.0117,17.9442,15.03000000000003,75,64,4.52,ZA,1691102837
229,oga,46.4631,10.347,14.379999999999995,91,64,0.84,IT,1691102837
230,yabrud,33.9674,36.6574,21.660000000000025,36,0,1.03,SY,1691102837
231,wajir,1.7471,40.0573,23.410000000000025,65,89,7.79,KE,1691102838
232,rosetta,31.4044,30.4164,26.140000000000043,71,0,3.85,EG,1691102838
233,domoni,-12.2569,44.5319,24.680000000000007,78,95,6.12,KM,1691102838
234,san carlos de bariloche,-41.1456,-71.3082,4.860000000000014,36,0,7.72,AR,1691102770
235,vardo,70.3705,31.1107,12.990000000000009,94,21,1.03,NO,1691102839
236,hambantota,6.1241,81.1185,26.27000000000004,81,92,8.35,LK,1691102840
237,tucuman,-26.8241,-65.2226,19.0,63,2,1.03,AR,1691102841
238,cruz grande,16.7333,-99.1333,26.83000000000004,87,99,0.84,MX,1691102841
239,cururupu,-1.8283,-44.8683,23.99000000000001,91,41,1.51,BR,1691102842
240,aspindza,41.5739,43.2483,17.120000000000005,97,98,1.97,GE,1691102843
241,suicheng,33.8963,117.9331,26.370000000000005,89,0,2.65,CN,1691102844
242,jacqueville,5.2052,-4.4146,23.860000000000014,89,94,3.8,CI,1691102845
243,kamyshin,50.0983,45.416,22.52000000000004,66,55,2.57,RU,1691102783
244,qrendi,35.8347,14.4583,25.810000000000002,89,0,2.57,MT,1691102847
245,road town,18.4167,-64.6167,30.05000000000001,74,20,2.06,VG,1691102848
246,dong hoi,17.4833,106.6,26.78000000000003,80,100,8.4,VN,1691102849
247,saint george,37.1041,-113.5841,37.75,23,0,4.02,US,1691102646
248,umm lajj,25.0213,37.2685,30.55000000000001,57,0,3.5,SA,1691102850
249,ketchikan,55.3422,-131.6461,22.260000000000048,56,0,4.12,US,1691102852
250,taoudenni,22.6783,-3.9836,42.07000000000005,8,24,4.17,ML,1691102852
251,sambava,-14.2667,50.1667,22.350000000000023,81,91,4.91,MG,1691102853
252,bengkulu,-3.8004,102.2655,23.80000000000001,90,91,1.95,ID,1691102854
253,novyy urgal,51.0736,132.5642,16.350000000000023,62,81,1.84,RU,1691102857
254,iskateley,67.6803,53.1512,19.120000000000005,70,43,1.73,RU,1691102857
255,cherskiy,68.75,161.3,5.330000000000041,93,100,2.72,RU,1691102857
256,altay,47.8667,88.1167,17.55000000000001,65,62,3.15,CN,1691102858
257,alice town,25.7167,-79.3,29.55000000000001,66,17,2.69,BS,1691102859
258,peleduy,59.6289,112.7406,17.560000000000002,57,82,0.23,RU,1691102860
259,diffa,13.3154,12.6113,25.910000000000025,78,54,6.03,NE,1691102860
260,sao miguel do araguaia,-13.275,-50.1628,27.920000000000016,28,70,1.23,BR,1691102861
261,ayorou,14.7308,0.9174,35.25,39,52,6.05,NE,1691102862
262,ried,48.477,11.2606,18.350000000000023,77,98,2.29,DE,1691102863
263,ludvika,60.1496,15.1878,15.189999999999998,96,100,3.41,SE,1691102863
264,ambilobe,-13.2,49.05,21.27000000000004,74,59,1.88,MG,1691102864
265,bud,39.447,-86.1758,30.970000000000027,60,34,4.46,US,1691102865
266,quatre cocos,-20.2078,57.7625,22.060000000000002,70,77,8.16,MU,1691102866
267,lambarene,-0.7001,10.2406,21.879999999999995,78,58,2.11,GA,1691102866
268,barabai,-2.5833,115.3833,22.99000000000001,88,15,0.67,ID,1691102867
269,nalut,30.3333,10.85,32.84000000000003,16,1,3.29,LY,1691102867
270,orebro,59.2741,15.2066,16.629999999999995,94,75,4.63,SE,1691102868
271,geraldton,-28.7667,114.6,3.230000000000018,93,0,2.57,AU,1691102868
272,kalevala,65.2,31.1667,16.680000000000007,97,100,2.42,RU,1691102869
273,kupang,-10.1667,123.5833,25.0,78,26,4.87,ID,1691102869
274,tiarei,-17.5333,-149.3333,28.010000000000048,72,9,4.85,PF,1691102870
275,arvika,59.6553,12.5852,16.340000000000032,94,98,1.25,SE,1691102870
276,itapipoca,-3.4944,-39.5786,23.99000000000001,81,54,2.85,BR,1691102872
277,invermere,50.5167,-116.0354,30.200000000000045,12,3,1.43,CA,1691102872
278,tura,25.5198,90.2201,23.710000000000036,96,100,2.72,IN,1691102873
279,kamskoye ustye,55.2016,49.268,18.0,82,24,1.64,RU,1691102873
280,salalah,17.0151,54.0924,26.05000000000001,94,100,5.66,OM,1691102873
281,matara,5.9485,80.5353,25.390000000000043,89,83,5.54,LK,1691102874
282,svetlaya,46.5389,138.3297,14.32000000000005,94,100,7.98,RU,1691102874
283,birin,26.8865,88.0718,18.30000000000001,96,100,1.63,NP,1691102875
284,cochrane,51.1834,-114.4687,24.950000000000045,54,0,4.63,CA,1691102875
285,lazaro cardenas,17.9583,-102.2,28.75,73,100,3.52,MX,1691102876
286,meridian,43.6121,-116.3915,33.47000000000003,34,0,4.12,US,1691102877
287,nan,18.8333,100.6667,25.010000000000048,94,75,0.0,TH,1691102877
288,orapa,-21.2833,25.3667,10.580000000000041,61,0,5.59,BW,1691102877
289,mujiayingzi,42.1167,118.7833,22.82000000000005,76,100,4.06,CN,1691102878
290,sungaipenuh,-2.0833,101.3833,18.100000000000023,97,97,1.35,ID,1691102879
291,marawi,7.9986,124.2928,23.180000000000007,78,84,1.46,PH,1691102880
292,nouadhibou,20.931,-17.0347,21.99000000000001,83,6,6.17,MR,1691102880
293,staicele,57.8364,24.75,15.120000000000005,96,100,3.67,LV,1691102880
294,necochea,-38.5473,-58.7368,6.990000000000009,47,58,4.36,AR,1691102679
295,codrington,-38.2667,141.9667,15.610000000000014,75,68,10.88,AU,1691102881
296,hyeres,43.1167,6.1167,24.860000000000014,40,0,6.69,FR,1691102881
297,pacific grove,36.6177,-121.9166,27.439999999999998,71,20,6.17,US,1691102778
298,stephenville,32.2207,-98.2023,41.07000000000005,20,0,5.14,US,1691102796
299,sabang,5.8933,95.3214,27.840000000000032,77,100,5.8,ID,1691102883
300,cockburn town,21.4612,-71.1419,28.900000000000034,75,99,5.17,TC,1691102884
301,shebalino,51.2917,85.6772,14.210000000000036,92,75,1.74,RU,1691102884
302,victoria,22.2855,114.1577,30.670000000000016,90,97,1.34,HK,1691102439
303,ambulu,-8.345,113.6058,22.30000000000001,90,49,1.25,ID,1691102885
304,ostrovnoy,68.0531,39.5131,16.610000000000014,83,51,3.36,RU,1691102886
305,paciran,-6.8767,112.3761,23.730000000000018,86,21,2.08,ID,1691102886
306,sao filipe,14.8961,-24.4956,25.83000000000004,75,30,2.26,CV,1691102887
307,tornio,65.8481,24.1466,15.010000000000048,90,91,3.41,FI,1691102888
308,neuquen,-38.9516,-68.0591,9.939999999999998,40,0,2.06,AR,1691102677
309,nantucket,41.2835,-70.0995,22.08000000000004,70,0,4.63,US,1691102890
310,thunder bay,48.4001,-89.3168,26.99000000000001,44,40,5.66,CA,1691102890
311,norman wells,65.282,-126.8329,19.02000000000004,77,100,9.26,CA,1691102890
312,solnechnyy,50.7214,136.6319,15.879999999999995,62,82,3.51,RU,1691102891
313,fort nelson,58.8053,-122.7002,21.08000000000004,49,75,2.06,CA,1691102891
314,keflavik,64.0049,-22.5624,11.950000000000045,82,75,2.57,IS,1691102892
315,port moresby,-9.4431,147.1797,25.680000000000007,69,0,7.72,PG,1691102772
316,tootsi,58.5781,24.7925,16.860000000000014,97,100,3.31,EE,1691102893
317,yumen,40.2833,97.2,22.660000000000025,35,19,2.48,CN,1691102894
318,maun,-19.9833,23.4167,16.980000000000018,48,0,4.63,BW,1691102895
319,jalu,29.0331,21.5482,29.58000000000004,35,0,4.58,LY,1691102896
320,lulea,65.5842,22.1547,15.04000000000002,88,20,0.51,SE,1691102897
321,two hills,53.7169,-111.7518,23.27000000000004,60,1,6.17,CA,1691102897
322,adrar,20.5022,-10.0711,36.56,9,82,0.76,MR,1691102898
323,beringovskiy,63.05,179.3167,8.150000000000034,98,100,3.25,RU,1691102898
324,tibati,6.4667,12.6333,19.03000000000003,99,100,1.07,CM,1691102898
325,bonavista,48.6499,-53.1147,15.370000000000005,81,77,5.51,CA,1691102899
326,hualmay,-11.0964,-77.6139,19.32000000000005,77,7,4.37,PE,1691102900
327,bambanglipuro,-7.95,110.2833,22.30000000000001,90,11,1.2,ID,1691102900
328,synya,65.3718,58.0387,18.010000000000048,79,89,1.05,RU,1691102901
329,byron bay,-28.65,153.6167,14.28000000000003,68,92,3.12,AU,1691102317
330,cidreira,-30.1811,-50.2056,16.850000000000023,79,90,3.45,BR,1691102902
331,kabompo,-13.5927,24.2008,16.310000000000002,43,0,4.42,ZM,1691102902
332,charters towers,-20.1,146.2667,18.310000000000002,61,0,6.64,AU,1691102687
333,nizhniy odes,63.6445,54.856,16.610000000000014,96,80,2.09,RU,1691102903
334,carnarvon,-24.8667,113.6333,13.460000000000036,64,0,7.01,AU,1691102903
335,lompoc,34.6391,-120.4579,27.230000000000018,74,100,10.29,US,1691102904
336,campbell river,50.0163,-125.2446,26.210000000000036,34,20,2.06,CA,1691102904
337,sao domingos do maranhao,-5.5758,-44.3853,27.30000000000001,40,35,0.17,BR,1691102904
338,nome,64.5011,-165.4064,20.090000000000032,72,100,5.91,US,1691102905
339,mahebourg,-20.4081,57.7,22.160000000000025,78,40,4.63,MU,1691102905
340,guerrero negro,27.9769,-114.0611,25.27000000000004,61,9,7.85,MX,1691102906
341,aklavik,68.2191,-135.0107,15.0,88,100,3.09,CA,1691102907
342,muisne,0.6,-80.0333,26.160000000000025,82,59,3.4,EC,1691102907
343,oranjemund,-28.55,16.4333,15.860000000000014,45,97,1.49,NA,1691102908
344,petropavlovsk-kamchatskiy,53.0452,158.6483,13.330000000000041,82,75,2.0,RU,1691102908
345,morropon,-5.1822,-79.9689,30.170000000000016,48,8,5.1,PE,1691102909
346,comodoro rivadavia,-45.8667,-67.5,10.920000000000016,35,0,15.43,AR,1691102909
347,bubaque,11.2833,-15.8333,26.33000000000004,85,100,4.59,GW,1691102910
348,cayenne,4.9333,-52.3333,27.02000000000004,83,0,2.57,GF,1691102910
349,mount isa,-20.7333,139.5,18.870000000000005,55,1,4.12,AU,1691102910
350,lavrentiya,65.5833,-171.0,11.350000000000023,87,100,3.45,RU,1691102911
351,panhala,16.8167,74.1167,19.920000000000016,93,100,5.03,IN,1691102911
352,taft,31.7471,54.2088,26.970000000000027,16,0,2.06,IR,1691102911
353,lagoa,39.05,-27.9833,21.980000000000018,77,5,6.32,PT,1691102912
354,port augusta,-32.5,137.7667,16.879999999999995,73,96,1.38,AU,1691102912
355,laguna,38.421,-121.4238,32.950000000000045,40,0,3.6,US,1691102913
356,mokhsogollokh,61.4681,128.9203,19.30000000000001,50,11,0.19,RU,1691102913
357,rahatgarh,23.7833,78.3667,22.710000000000036,98,100,9.66,IN,1691102914
358,kodiak,57.79,-152.4072,12.730000000000018,94,100,1.54,US,1691102915
359,omsukchan,62.5333,155.8,7.840000000000032,92,100,5.19,RU,1691102915
360,kutum,14.2,24.6667,22.360000000000014,74,96,5.46,SD,1691102916
361,pochutla,15.7432,-96.4661,25.870000000000005,80,100,1.97,MX,1691102916
362,pitimbu,-7.4706,-34.8086,24.33000000000004,75,9,6.63,BR,1691102917
363,provideniya,64.3833,-173.3,14.090000000000032,67,100,3.13,RU,1691102917
364,sudak,44.85,34.9667,23.310000000000002,71,0,1.08,UA,1691102917
365,sapa,5.1544,120.3241,28.379999999999995,77,6,3.12,PH,1691102918
366,chuy,-33.6971,-53.4616,10.870000000000005,63,98,2.86,UY,1691102702
367,ekhabi,53.5102,142.9671,14.710000000000036,83,99,5.84,RU,1691102919
368,marsh harbour,26.5412,-77.0636,28.970000000000027,66,16,4.26,BS,1691102919
369,barabash,43.2,131.4833,20.890000000000043,100,100,0.81,RU,1691102920
370,alice springs,-23.7,133.8833,11.75,76,0,0.0,AU,1691102920
371,prosvet,55.5703,65.0825,16.410000000000025,96,33,2.48,RU,1691102921
372,micheweni,-4.9667,39.8333,23.75,86,87,5.71,TZ,1691102922
373,anadyr,64.75,177.4833,11.28000000000003,87,100,6.0,RU,1691102922
374,oparino,59.8518,48.2783,15.480000000000018,96,78,1.5,RU,1691102923
375,portland,45.5234,-122.6762,32.59000000000003,40,20,4.63,US,1691102729
376,olafsvik,64.8945,-23.7142,11.439999999999998,83,91,2.43,IS,1691102924
377,santa cruz,-17.8,-63.1667,29.03000000000003,51,0,4.12,BO,1691102925
378,roebourne,-20.7833,117.1333,20.450000000000045,75,31,3.73,AU,1691102925
379,biak,-0.9131,122.8766,24.82000000000005,82,50,2.37,ID,1691102926
380,dikson,73.5069,80.5464,6.490000000000009,76,82,4.72,RU,1691102927
381,opunake,-39.4556,173.8583,8.680000000000007,67,6,3.84,NZ,1691102927
382,saurimo,-9.6608,20.3916,17.689999999999998,31,0,2.36,AO,1691102927
383,ambikapur,23.1167,83.2,22.150000000000034,94,100,3.75,IN,1691102928
384,xining,36.6167,101.7667,15.210000000000036,92,100,0.75,CN,1691102929
385,axim,4.8699,-2.2405,23.840000000000032,84,29,2.62,GH,1691102929
386,booue,-0.0921,11.9385,25.640000000000043,60,98,1.51,GA,1691102930
387,malkerns,-26.5667,31.1833,9.090000000000032,84,0,1.88,SZ,1691102930
388,menongue,-14.6585,17.691,13.490000000000009,47,7,2.65,AO,1691102930
389,kahului,20.8947,-156.47,30.010000000000048,61,20,11.32,US,1691102884
390,gambo,4.6482,22.2633,21.660000000000025,97,87,0.52,CF,1691102931
391,sri aman,1.2376,111.4621,24.03000000000003,100,89,0.51,MY,1691102931
392,zhangye,38.9342,100.4517,21.420000000000016,36,10,3.02,CN,1691102932
393,lima,-12.0432,-77.0282,21.140000000000043,64,0,5.66,PE,1691102667
394,ilulissat,69.2167,-51.1,8.010000000000048,81,75,2.06,GL,1691102932
395,batagay-alyta,67.8006,130.4114,15.129999999999995,56,100,2.76,RU,1691102933
396,mazatlan,23.2167,-106.4167,33.28000000000003,72,45,3.13,MX,1691102934
397,bandarbeyla,9.4942,50.8122,24.870000000000005,78,61,13.43,SO,1691102934
398,mogocha,53.7333,119.7667,15.870000000000005,57,56,1.21,RU,1691102934
399,hay river,60.8156,-115.7999,19.99000000000001,68,75,6.17,CA,1691102691
400,smithers,54.7804,-127.1743,22.180000000000007,43,75,2.57,CA,1691102935
401,rio grande,-32.035,-52.0986,14.060000000000002,70,40,3.59,BR,1691102884
402,quthing,-30.4,27.7003,6.050000000000011,57,5,1.06,LS,1691102936
403,alakurtti,66.9672,30.3491,15.470000000000027,97,100,2.09,RU,1691102936
404,ushtobe,45.2514,77.9838,21.600000000000023,31,0,1.44,KZ,1691102936
405,kargil,34.5667,76.1,16.29000000000002,55,89,2.59,IN,1691102937
406,santo domingo,18.5001,-69.9886,30.02000000000004,76,75,2.57,DO,1691102937
407,esna,25.2934,32.554,32.01000000000005,17,0,5.45,EG,1691102938
408,lukovetskiy,64.2956,41.9211,18.620000000000005,79,57,1.6,RU,1691102938
409,sinjai,-5.1241,120.253,24.79000000000002,91,33,1.66,ID,1691102939
410,naantali,60.4674,22.0243,17.230000000000018,95,75,2.57,FI,1691102939
411,hokitika,-42.7167,170.9667,8.360000000000014,72,84,1.88,NZ,1691102940
412,poplar bluff,36.757,-90.3929,33.85000000000002,74,0,2.57,US,1691102940
413,kununurra,-15.7667,128.7333,18.99000000000001,72,5,0.0,AU,1691102941
414,bowen,-20.0167,148.2333,21.57000000000005,62,3,9.28,AU,1691102941
415,cape canaveral,28.4058,-80.6048,31.120000000000005,74,0,5.14,US,1691102854
416,dauphin,51.1494,-100.0502,27.08000000000004,47,0,4.12,CA,1691102815
417,stendal,52.6,11.85,17.189999999999998,87,51,0.89,DE,1691102942
418,baton rouge,30.4508,-91.1545,37.170000000000016,47,20,3.09,US,1691102835
419,the valley,18.217,-63.0578,29.920000000000016,79,40,6.17,AI,1691102943
420,pisco,-13.7,-76.2167,21.03000000000003,64,0,6.17,PE,1691102944
421,houma,29.5958,-90.7195,35.0,66,75,3.6,US,1691102945
422,zarand,30.8127,56.564,22.950000000000045,18,0,1.74,IR,1691102945
423,dunedin,-45.8742,170.5036,8.78000000000003,72,72,0.45,NZ,1691102850
424,japura,-0.3167,102.35,23.360000000000014,95,65,0.88,ID,1691102946
425,shenjiamen,29.9576,122.298,26.480000000000018,93,89,9.47,CN,1691102947
426,leningradskiy,69.3833,178.4167,7.010000000000048,85,99,2.1,RU,1691102947
427,chapais,49.7834,-74.8492,15.879999999999995,95,99,2.83,CA,1691102948
428,turukhansk,65.8167,87.9833,13.430000000000007,56,7,5.97,RU,1691102948
429,sorong,-0.8833,131.25,25.670000000000016,91,100,4.34,ID,1691102948
430,north myrtle beach,33.816,-78.68,26.730000000000018,75,20,2.57,US,1691102949
431,freeport,40.6576,-73.5832,24.980000000000018,61,0,8.23,US,1691102949
432,faanui,-16.4833,-151.75,26.120000000000005,69,20,6.15,PF,1691102949
433,dali,25.7,100.1833,17.420000000000016,94,100,0.72,CN,1691102950
434,north bend,43.4065,-124.2243,26.80000000000001,68,0,6.69,US,1691102950
435,novyye lyady,58.0536,56.6039,16.58000000000004,71,100,1.0,RU,1691102951
436,sibolga,1.7427,98.7792,24.640000000000043,82,98,1.48,ID,1691102951
437,okha,53.5739,142.9478,14.670000000000016,83,97,5.81,RU,1691102686
438,ossora,59.2353,163.0719,10.629999999999995,93,100,6.15,RU,1691102952
439,nabire,-3.3667,135.4833,25.340000000000032,88,91,1.33,ID,1691102953
440,ati,13.2154,18.3353,29.860000000000014,58,99,3.82,TD,1691102953
441,poya,-21.35,165.15,18.400000000000034,88,100,6.97,NC,1691102897
442,kemise,10.7167,39.8667,19.720000000000027,78,36,2.82,ET,1691102954
443,coahuayana,18.7333,-103.6833,30.430000000000007,69,100,2.79,MX,1691102954
444,coracao de jesus,-16.6853,-44.365,20.010000000000048,33,11,1.18,BR,1691102955
445,aleksandrov gay,50.147,48.5704,23.52000000000004,63,97,2.6,RU,1691102955
446,samarai,-10.6167,150.6667,25.29000000000002,73,51,7.15,PG,1691102955
447,haines junction,60.7522,-137.5108,23.970000000000027,41,9,1.03,CA,1691102957
448,acapulco,16.8634,-99.8901,29.900000000000034,74,100,3.6,MX,1691102847
449,metro,-5.1131,105.3067,23.220000000000027,93,52,1.43,ID,1691102957
450,sandwick,60.0,-1.25,10.900000000000034,100,100,4.12,GB,1691102958
451,puerto del rosario,28.5004,-13.8627,23.860000000000014,78,20,6.17,ES,1691102958
452,te anau,-45.4167,167.7167,7.770000000000039,95,100,2.62,NZ,1691102959
453,meulaboh,4.1363,96.1285,24.840000000000032,89,100,1.53,ID,1691102959
454,cameta,-2.2444,-49.4958,28.840000000000032,60,31,3.0,BR,1691102959
455,uyuni,-20.4597,-66.825,5.420000000000016,21,0,2.44,BO,1691102960
456,faridpur,23.6,89.8333,26.80000000000001,87,100,3.69,BD,1691102960
457,south venice,27.0531,-82.4243,32.99000000000001,73,20,5.66,US,1691102961
458,kenai,60.5544,-151.2583,16.05000000000001,85,40,6.17,US,1691102961
459,puerto plata,19.7934,-70.6884,29.950000000000045,74,40,0.0,DO,1691102962
460,camacupa,-12.0167,17.4833,15.340000000000032,36,28,1.56,AO,1691102962
461,petauke,-14.2426,31.3253,13.150000000000034,65,0,4.23,ZM,1691102962
462,belmonte,-15.8631,-38.8828,22.32000000000005,81,87,3.46,BR,1691102963
463,college,64.8569,-147.8028,25.82000000000005,45,75,1.54,US,1691102963
464,kloulklubed,7.0419,134.2556,26.28000000000003,75,98,3.27,PW,1691102963
465,sao joaquim,-28.2939,-49.9317,11.379999999999995,95,39,1.08,BR,1691102964
466,broken hill,-31.95,141.4333,16.720000000000027,48,1,9.82,AU,1691102964
467,sao paulo de olivenca,-3.3783,-68.8725,24.07000000000005,94,52,0.81,BR,1691102965
468,waingapu,-9.6567,120.2641,24.25,88,10,4.57,ID,1691102965
469,missoula,47.0166,-113.8009,31.220000000000027,19,97,3.03,US,1691102701
470,oussouye,12.485,-16.5469,28.05000000000001,87,100,2.82,SN,1691102966
471,choma,-16.8065,26.9531,12.260000000000048,56,0,2.25,ZM,1691102967
472,lufilufi,-13.8745,-171.5986,30.879999999999995,71,15,6.05,WS,1691102968
473,novyy urengoy,66.0833,76.6333,18.77000000000004,67,31,3.69,RU,1691102969
474,port-gentil,-0.7193,8.7815,22.49000000000001,80,83,4.83,GA,1691102704
475,ewo,-0.8725,14.8206,24.689999999999998,76,94,0.66,CG,1691102970
476,dubbo,-32.25,148.6167,8.07000000000005,87,88,2.57,AU,1691102970
477,severo-kurilsk,50.6789,156.125,11.129999999999995,91,100,6.91,RU,1691102971
478,borovskoy,53.8,64.15,17.370000000000005,77,74,3.48,KZ,1691102971
479,kamenka,51.3223,42.7678,20.57000000000005,72,21,0.8,RU,1691102971
480,sao jose da coroa grande,-8.8978,-35.1478,23.810000000000002,71,17,4.46,BR,1691102972
481,kingston,17.997,-76.7936,29.560000000000002,85,40,5.66,JM,1691102972
482,wageningen,51.9667,5.6667,15.580000000000041,93,40,1.54,NL,1691102973
483,diego de almagro,-26.3667,-70.05,16.460000000000036,57,0,1.12,CL,1691102895
484,ankang,32.68,109.0172,24.860000000000014,90,1,0.53,CN,1691102973
485,qaqortoq,60.7167,-46.0333,6.230000000000018,85,80,1.68,GL,1691102974
486,half moon bay,37.4636,-122.4286,27.54000000000002,77,100,10.29,US,1691102979
487,stromness,58.965,-3.296,11.980000000000018,89,100,5.81,GB,1691102979
488,amga,60.8953,131.9608,19.33000000000004,57,51,0.93,RU,1691102980
489,rio gallegos,-51.6226,-69.2181,3.0300000000000296,93,75,9.26,AR,1691102981
490,saint-pierre,-21.3393,55.4781,19.82000000000005,94,75,4.12,RE,1691102981
491,mishkino,55.3389,63.9175,16.439999999999998,90,81,2.89,RU,1691102981
492,placido de castro,-10.3353,-67.1856,30.02000000000004,33,6,0.68,BR,1691102982
493,gusau,12.1628,6.6614,25.30000000000001,78,58,3.96,NG,1691102982
494,sharjah,25.3573,55.4033,37.99000000000001,46,0,1.54,AE,1691102982
495,nioro,13.35,-15.75,26.04000000000002,87,99,1.92,GM,1691102983
496,seymchan,62.8833,152.4333,15.240000000000009,45,88,7.88,RU,1691102983
497,chimoio,-19.1164,33.4833,11.170000000000016,84,0,1.64,MZ,1691102984
498,serenje,-13.2325,30.2352,9.689999999999998,72,0,2.98,ZM,1691102984
499,surgut,61.25,73.4167,18.100000000000023,93,0,3.13,RU,1691102984
500,vilhena,-12.7406,-60.1458,29.120000000000005,34,0,1.54,BR,1691102985
501,tazovskiy,67.4667,78.7,11.210000000000036,70,16,3.59,RU,1691102985
502,mildura,-34.2,142.15,16.710000000000036,57,63,10.41,AU,1691102986
503,zhuanghe,39.7008,122.9911,25.75,89,78,4.34,CN,1691102986
504,banjar,-8.19,114.9675,22.910000000000025,86,9,1.7,ID,1691102986
505,tamandare,-8.7597,-35.1047,23.860000000000014,71,17,4.32,BR,1691102987
506,great yarmouth,52.6083,1.7305,14.120000000000005,92,68,4.64,GB,1691102864
507,djambala,-2.5447,14.7533,25.74000000000001,46,88,1.93,CG,1691102988
508,kungurtug,50.5994,97.5228,12.75,85,43,0.75,RU,1691102988
509,carutapera,-1.195,-46.02,25.400000000000034,85,23,3.35,BR,1691102989
510,bayir,37.2687,28.2167,18.29000000000002,56,0,1.42,TR,1691102989
511,wewak,-3.5534,143.6268,27.060000000000002,86,34,3.33,PG,1691102990
512,kushima,31.4583,131.2333,26.900000000000034,92,99,2.92,JP,1691102991
513,rapid valley,44.0625,-103.1463,25.03000000000003,78,100,3.09,US,1691102991
514,skjervoy,70.0311,20.9714,19.0,80,100,7.75,NO,1691102991
515,zambezi,-13.5432,23.1047,13.860000000000014,51,10,2.34,ZM,1691102992
516,pangnirtung,66.1451,-65.7125,11.0,76,75,2.06,CA,1691102992
517,monrovia,6.3005,-10.7969,24.870000000000005,83,86,3.75,LR,1691102993
518,saint anthony,45.0205,-93.218,35.660000000000025,38,20,4.63,US,1691102993
519,ihosy,-22.4,46.1167,13.04000000000002,84,60,6.42,MG,1691102994
520,wanaka,-44.7,169.15,5.860000000000014,89,89,2.41,NZ,1691102994
521,berdigestyakh,62.0989,126.6992,19.510000000000048,49,16,1.17,RU,1691102995
522,bogale,16.2833,95.4,25.660000000000025,91,99,3.23,MM,1691102995
523,talara,-4.5772,-81.2719,27.420000000000016,65,0,5.14,PE,1691102995
524,mbanza-ngungu,-5.25,14.8667,22.460000000000036,58,17,4.34,CD,1691102996
525,halifax,44.6453,-63.5724,21.939999999999998,73,21,4.63,CA,1691102961
526,las colinas,8.55,-80.0833,27.08000000000004,54,51,4.27,PA,1691102996
527,kathmandu,27.7167,85.3167,22.129999999999995,90,40,1.54,NP,1691102520
528,dumas,35.8656,-101.9732,36.960000000000036,24,0,2.57,US,1691102997
529,bartica,6.4,-58.6167,28.180000000000007,96,76,0.54,GY,1691102998
530,aksarka,66.5606,67.7975,16.25,78,6,3.5,RU,1691102998
531,stornoway,58.2093,-6.3865,11.160000000000025,79,100,4.12,GB,1691102999
532,iranshahr,27.2025,60.6848,33.59000000000003,10,71,0.81,IR,1691103000
533,xifeng,42.7372,124.7222,25.25,91,93,7.2,CN,1691103000
534,chimbote,-9.0853,-78.5783,20.29000000000002,78,11,4.41,PE,1691103001
535,doka,13.5167,35.7667,22.78000000000003,85,90,1.86,SD,1691103001
536,grand gaube,-20.0064,57.6608,22.220000000000027,74,41,0.89,MU,1691103002
537,alta floresta,-9.8756,-56.0861,27.58000000000004,29,85,1.01,BR,1691103002
538,constantine,36.365,6.6147,24.670000000000016,46,0,3.09,DZ,1691102832
539,berlevag,70.8578,29.0864,20.0,88,20,2.06,NO,1691103003
540,luwingu,-10.2621,29.9271,13.57000000000005,58,52,3.2,ZM,1691103003
541,san quintin,30.4833,-115.95,24.439999999999998,56,0,9.78,MX,1691102777
542,gornopravdinsk,60.05,69.9,16.480000000000018,97,42,2.32,RU,1691103005
543,orlik,52.5178,99.825,12.810000000000002,90,46,0.32,RU,1691103005
544,yarmouth,41.7057,-70.2286,23.03000000000003,70,0,6.69,US,1691103005
545,matamoros,25.5333,-103.25,35.06,23,75,3.09,MX,1691102807
546,venado tuerto,-33.7456,-61.9688,11.54000000000002,41,70,2.87,AR,1691103006
547,pimentel,-6.8367,-79.9342,25.160000000000025,65,20,6.69,PE,1691103007
548,kashi,39.4547,75.9797,25.560000000000002,27,0,5.0,CN,1691103008
549,neryungri,56.6709,124.6491,14.629999999999995,63,0,0.63,RU,1691103009
550,sinnamary,5.3833,-52.95,26.860000000000014,81,15,4.94,GF,1691103009
551,lata,40.1629,-8.3327,16.150000000000034,93,3,1.54,PT,1691103009
552,chicama,-7.8447,-79.1469,21.30000000000001,73,6,3.51,PE,1691103010
553,gat,31.61,34.7642,25.450000000000045,100,0,0.88,IL,1691103010
554,pontianak,-0.0333,109.3333,22.99000000000001,94,40,0.0,ID,1691102954
555,buraydah,26.326,43.975,34.25,16,0,4.09,SA,1691102829
556,trelew,-43.249,-65.3051,9.950000000000045,28,0,9.2,AR,1691103011
557,rantepao,-2.9701,119.8978,19.890000000000043,88,21,0.64,ID,1691103012
558,aseri,59.4506,26.8675,16.180000000000007,95,85,5.71,EE,1691103012
559,aksarayskiy,46.7924,48.0119,25.710000000000036,37,93,3.05,RU,1691103012
560,kropotkin,45.4375,40.5756,18.410000000000025,85,22,2.28,RU,1691103013
561,skibbereen,51.55,-9.2667,14.5,83,5,5.18,IE,1691103014
562,hirara,24.8,125.2833,27.150000000000034,100,100,12.86,JP,1691103014
563,tres passos,-27.4556,-53.9319,17.970000000000027,77,42,2.27,BR,1691103015
564,jieshi,22.8134,115.8257,29.120000000000005,83,67,8.12,CN,1691103015
565,itapora,-22.0799,-54.7874,24.140000000000043,36,0,2.46,BR,1691103016
566,balabac,7.9868,117.0645,27.600000000000023,83,92,3.06,PH,1691103016
567,ayan,56.45,138.1667,17.410000000000025,64,99,4.52,RU,1691103017
568,caronport,50.4501,-105.8179,36.110000000000014,69,69,7.67,CA,1691103018
569,slave lake,55.2834,-114.769,20.99000000000001,64,75,7.72,CA,1691103018
570,nedjo,9.5046,35.5019,14.460000000000036,97,97,0.99,ET,1691103019
571,dargaville,-35.9333,173.8833,14.200000000000045,79,72,5.2,NZ,1691103019
572,aykhal,66.0,111.5,6.03000000000003,83,98,3.61,RU,1691103019
573,goryachegorsk,55.4053,88.9154,15.939999999999998,93,97,0.93,RU,1691103020
574,nioki,-2.7167,17.6833,25.29000000000002,50,87,1.5,CD,1691103020
575,kisangani,0.5167,25.2,22.54000000000002,86,96,0.31,CD,1691103021
576,faratsiho,-19.4,46.95,10.57000000000005,85,54,6.07,MG,1691103022
